{"type": "FeatureCollection","features": [{"type": "Feature", "properties": {"name":"Novorossiysk","quantity":3485473}, "geometry": { "type": "Point", "coordinates": [37.7874,44.7108] }},{"type": "Feature", "properties": {"name":"Taranto","quantity":3184765}, "geometry": { "type": "Point", "coordinates": [17.2997,40.4618] }},{"type": "Feature", "properties": {"name":"Palermo","quantity":2695874}, "geometry": { "type": "Point", "coordinates": [13.3473,38.1373] }},{"type": "Feature", "properties": {"name":"Tunis / Rades","quantity":1400657}, "geometry": { "type": "Point", "coordinates": [10.18479,36.80011] }},{"type": "Feature", "properties": {"name":"Singapore","quantity":1399483}, "geometry": { "type": "Point", "coordinates": [103.85283,1.29063] }},{"type": "Feature", "properties": {"name":"Catania","quantity":1234242}, "geometry": { "type": "Point", "coordinates": [15.0306,37.4603] }},{"type": "Feature", "properties": {"name":"Porto Torres","quantity":1166564}, "geometry": { "type": "Point", "coordinates": [8.3338,40.9513] }},{"type": "Feature", "properties": {"name":"Shanghai","quantity":1128882}, "geometry": { "type": "Point", "coordinates": [121.4915,31.2246] }},{"type": "Feature", "properties": {"name":"Zawia Terminal","quantity":964358}, "geometry": { "type": "Point", "coordinates": [12.7224,32.7706] }},{"type": "Feature", "properties": {"name":"Jebel Ali","quantity":869025}, "geometry": { "type": "Point", "coordinates": [55.0687,24.9959] }},{"type": "Feature", "properties": {"name":"Algeciras","quantity":801035}, "geometry": { "type": "Point", "coordinates": [-5.4278,36.1386] }},{"type": "Feature", "properties": {"name":"Ceyhan","quantity":765643}, "geometry": { "type": "Point", "coordinates": [35.8331,37.0562] }},{"type": "Feature", "properties": {"name":"Gioia Tauro","quantity":725580}, "geometry": { "type": "Point", "coordinates": [15.9207,38.4271] }},{"type": "Feature", "properties": {"name":"Hong Kong","quantity":618260}, "geometry": { "type": "Point", "coordinates": [114.1229,22.3434] }},{"type": "Feature", "properties": {"name":"Livorno","quantity":616596}, "geometry": { "type": "Point", "coordinates": [10.3073,43.5457] }},{"type": "Feature", "properties": {"name":"Cagliari","quantity":607233}, "geometry": { "type": "Point", "coordinates": [9.096,39.2204] }},{"type": "Feature", "properties": {"name":"Primorsk, Koivisto","quantity":593352}, "geometry": { "type": "Point", "coordinates": [28.622,60.3589] }},{"type": "Feature", "properties": {"name":"Jeddah","quantity":590841}, "geometry": { "type": "Point", "coordinates": [39.16404,21.58222] }},{"type": "Feature", "properties": {"name":"New York","quantity":584293}, "geometry": { "type": "Point", "coordinates": [-73.9796,40.6979] }},{"type": "Feature", "properties": {"name":"Malta","quantity":563322}, "geometry": { "type": "Point", "coordinates": [14.5244,35.918] }},{"type": "Feature", "properties": {"name":"Port Kelang","quantity":505262}, "geometry": { "type": "Point", "coordinates": [101.3006,2.941] }},{"type": "Feature", "properties": {"name":"Arzew","quantity":486994}, "geometry": { "type": "Point", "coordinates": [-97.9299915,22.4061839] }},{"type": "Feature", "properties": {"name":"Santos","quantity":462377}, "geometry": { "type": "Point", "coordinates": [-46.29,-23.8643] }},{"type": "Feature", "properties": {"name":"Ras Lanuf","quantity":445361}, "geometry": { "type": "Point", "coordinates": [18.41732,30.58686] }},{"type": "Feature", "properties": {"name":"Pusan","quantity":439469}, "geometry": { "type": "Point", "coordinates": [129.0752365,35.179978] }},{"type": "Feature", "properties": {"name":"Es Sider","quantity":411159}, "geometry": { "type": "Point", "coordinates": [18.36565,30.63684] }},{"type": "Feature", "properties": {"name":"Alexandria","quantity":388327}, "geometry": { "type": "Point", "coordinates": [29.8944,31.199] }},{"type": "Feature", "properties": {"name":"Barcelona","quantity":381014}, "geometry": { "type": "Point", "coordinates": [2.1889,41.3996] }},{"type": "Feature", "properties": {"name":"Montreal","quantity":370271}, "geometry": { "type": "Point", "coordinates": [-73.6554,45.5027] }},{"type": "Feature", "properties": {"name":"Bejaia","quantity":366877}, "geometry": { "type": "Point", "coordinates": [35.47843,33.8959203] }},{"type": "Feature", "properties": {"name":"Abo Terminal","quantity":357977}, "geometry": { "type": "Point", "coordinates": [4.7849,5.684] }},{"type": "Feature", "properties": {"name":"Ningbo","quantity":356761}, "geometry": { "type": "Point", "coordinates": [121.54988,29.87203] }},{"type": "Feature", "properties": {"name":"Gela","quantity":354037}, "geometry": { "type": "Point", "coordinates": [14.25075,37.06659] }},{"type": "Feature", "properties": {"name":"Milazzo","quantity":350267}, "geometry": { "type": "Point", "coordinates": [15.2734,38.2144] }},{"type": "Feature", "properties": {"name":"Savannah","quantity":325907}, "geometry": { "type": "Point", "coordinates": [-81.098,31.9996] }},{"type": "Feature", "properties": {"name":"Fos-sur-Mer","quantity":325200}, "geometry": { "type": "Point", "coordinates": [4.945595,43.4380714] }},{"type": "Feature", "properties": {"name":"Rio de Janeiro","quantity":319823}, "geometry": { "type": "Point", "coordinates": [-42.756,-22.239] }},{"type": "Feature", "properties": {"name":"Alger","quantity":315451}, "geometry": { "type": "Point", "coordinates": [3.0601,36.7753] }},{"type": "Feature", "properties": {"name":"Olbia","quantity":313943}, "geometry": { "type": "Point", "coordinates": [9.5397,40.9206] }},{"type": "Feature", "properties": {"name":"La Skirra","quantity":308802}, "geometry": { "type": "Point", "coordinates": [10.1654431,34.3342894] }},{"type": "Feature", "properties": {"name":"Kerch","quantity":307193}, "geometry": { "type": "Point", "coordinates": [50.327,29.2347] }},{"type": "Feature", "properties": {"name":"Houston","quantity":301630}, "geometry": { "type": "Point", "coordinates": [-94.9171,29.7232] }},{"type": "Feature", "properties": {"name":"Valencia","quantity":300132}, "geometry": { "type": "Point", "coordinates": [-0.3525,39.4228] }},{"type": "Feature", "properties": {"name":"Las Palmas","quantity":290340}, "geometry": { "type": "Point", "coordinates": [-15.4357,28.0514] }},{"type": "Feature", "properties": {"name":"Tangier Med","quantity":272241}, "geometry": { "type": "Point", "coordinates": [-5.7878,35.7913] }},{"type": "Feature", "properties": {"name":"Norfolk","quantity":265119}, "geometry": { "type": "Point", "coordinates": [-76.196,37.0127] }},{"type": "Feature", "properties": {"name":"Marsa el Brega","quantity":260246}, "geometry": { "type": "Point", "coordinates": [14.5244,35.918] }},{"type": "Feature", "properties": {"name":"Batumi","quantity":250318}, "geometry": { "type": "Point", "coordinates": [41.6568,41.6658] }},{"type": "Feature", "properties": {"name":"Haifa","quantity":245764}, "geometry": { "type": "Point", "coordinates": [34.9885,32.8184] }},{"type": "Feature", "properties": {"name":"Sidi Kerir Terminal","quantity":242189}, "geometry": { "type": "Point", "coordinates": [29.6734,31.0516] }},{"type": "Feature", "properties": {"name":"Cartagena","quantity":235044}, "geometry": { "type": "Point", "coordinates": [-75.518,10.4162] }},{"type": "Feature", "properties": {"name":"Khor al Fakkan","quantity":230101}, "geometry": { "type": "Point", "coordinates": [56.3709,25.3584] }},{"type": "Feature", "properties": {"name":"Cartagena","quantity":223070}, "geometry": { "type": "Point", "coordinates": [-75.518,10.4162] }},{"type": "Feature", "properties": {"name":"Augusta","quantity":216448}, "geometry": { "type": "Point", "coordinates": [15.2059,37.224] }},{"type": "Feature", "properties": {"name":"Buenos Aires","quantity":210672}, "geometry": { "type": "Point", "coordinates": [-58.44598,-34.61287] }},{"type": "Feature", "properties": {"name":"Rotterdam","quantity":204287}, "geometry": { "type": "Point", "coordinates": [-42.756,-22.239] }},{"type": "Feature", "properties": {"name":"New Orleans","quantity":202879}, "geometry": { "type": "Point", "coordinates": [14.2461,40.8529] }},{"type": "Feature", "properties": {"name":"Napoli","quantity":202858}, "geometry": { "type": "Point", "coordinates": [14.2461,40.8529] }},{"type": "Feature", "properties": {"name":"Jawaharlal Neru (Nhava Sheva)","quantity":201856}, "geometry": { "type": "Point", "coordinates": [72.9644,18.9629] }},{"type": "Feature", "properties": {"name":"Damietta","quantity":199792}, "geometry": { "type": "Point", "coordinates": [31.82137,31.41674] }},{"type": "Feature", "properties": {"name":"Fujairah","quantity":196178}, "geometry": { "type": "Point", "coordinates": [4.945595,43.4380714] }}]}

