{"type": "FeatureCollection","features": [{"type": "Feature", "properties": {"name":"Ceyhan","quantity":2729161}, "geometry": { "type": "Point", "coordinates": [35.8331,37.0562] }},{"type": "Feature", "properties": {"name":"Taranto","quantity":2265449}, "geometry": { "type": "Point", "coordinates": [17.2997,40.4618] }},{"type": "Feature", "properties": {"name":"Aberdeen","quantity":2044106}, "geometry": { "type": "Point", "coordinates": [-2.0913745,57.1452452] }},{"type": "Feature", "properties": {"name":"Novorossiysk","quantity":1833746}, "geometry": { "type": "Point", "coordinates": [37.7874,44.7108] }},{"type": "Feature", "properties": {"name":"Cagliari","quantity":1487159}, "geometry": { "type": "Point", "coordinates": [9.096,39.2204] }},{"type": "Feature", "properties": {"name":"Porto Torres","quantity":1334059}, "geometry": { "type": "Point", "coordinates": [8.3338,40.9513] }},{"type": "Feature", "properties": {"name":"Palermo","quantity":1144645}, "geometry": { "type": "Point", "coordinates": [13.3473,38.1373] }},{"type": "Feature", "properties": {"name":"Tunis","quantity":1077472}, "geometry": { "type": "Point", "coordinates": [10.18479,36.80011] }},{"type": "Feature", "properties": {"name":"Singapore","quantity":1000662}, "geometry": { "type": "Point", "coordinates": [103.85283,1.29063] }},{"type": "Feature", "properties": {"name":"Shanghai","quantity":982521}, "geometry": { "type": "Point", "coordinates": [121.4915,31.2246] }},{"type": "Feature", "properties": {"name":"Catania","quantity":845593}, "geometry": { "type": "Point", "coordinates": [15.0306,37.4603] }},{"type": "Feature", "properties": {"name":"Barcelona","quantity":803687}, "geometry": { "type": "Point", "coordinates": [2.1889,41.3996] }},{"type": "Feature", "properties": {"name":"Melitah","quantity":720480}, "geometry": { "type": "Point", "coordinates": [12.230272,32.863944] }},{"type": "Feature", "properties": {"name":"Zawia Terminal","quantity":696180}, "geometry": { "type": "Point", "coordinates": [12.7224,32.7706] }},{"type": "Feature", "properties": {"name":"Abidjan","quantity":674152}, "geometry": { "type": "Point", "coordinates": [1.87000083,9.76998734] }},{"type": "Feature", "properties": {"name":"Hong Kong","quantity":644048}, "geometry": { "type": "Point", "coordinates": [114.1229,22.3434] }},{"type": "Feature", "properties": {"name":"Odessa","quantity":643943}, "geometry": { "type": "Point", "coordinates": [30.7296333,46.4713468] }},{"type": "Feature", "properties": {"name":"New York","quantity":625643}, "geometry": { "type": "Point", "coordinates": [-73.9796,40.6979] }},{"type": "Feature", "properties": {"name":"Moudi Terminal","quantity":605629}, "geometry": { "type": "Point", "coordinates": [4.3611,8.4488] }},{"type": "Feature", "properties": {"name":"Malta","quantity":583840}, "geometry": { "type": "Point", "coordinates": [14.5244,35.918] }},{"type": "Feature", "properties": {"name":"Abu Kammash","quantity":578301}, "geometry": { "type": "Point", "coordinates": [11.7363481,33.073808] }},{"type": "Feature", "properties": {"name":"Termini Imerese","quantity":552766}, "geometry": { "type": "Point", "coordinates": [13.7101,37.9872] }},{"type": "Feature", "properties": {"name":"Ras Lanuf","quantity":527086}, "geometry": { "type": "Point", "coordinates": [18.41732,30.58686] }},{"type": "Feature", "properties": {"name":"Alexandria","quantity":506234}, "geometry": { "type": "Point", "coordinates": [29.8944,31.199] }},{"type": "Feature", "properties": {"name":"Livorno","quantity":501108}, "geometry": { "type": "Point", "coordinates": [10.3073,43.5457] }},{"type": "Feature", "properties": {"name":"Sidi Kerir Terminal","quantity":409760}, "geometry": { "type": "Point", "coordinates": [29.6734,31.0516] }},{"type": "Feature", "properties": {"name":"Tuapse","quantity":402353}, "geometry": { "type": "Point", "coordinates": [39.07206,44.09864] }},{"type": "Feature", "properties": {"name":"Houston","quantity":393245}, "geometry": { "type": "Point", "coordinates": [-94.9171,29.7232] }},{"type": "Feature", "properties": {"name":"Batumi","quantity":373638}, "geometry": { "type": "Point", "coordinates": [41.6568,41.6658] }},{"type": "Feature", "properties": {"name":"Fos-sur-Mer","quantity":358248}, "geometry": { "type": "Point", "coordinates": [4.945595,43.4380714] }},{"type": "Feature", "properties": {"name":"Santa Panagia","quantity":354559}, "geometry": { "type": "Point", "coordinates": [15.2797,37.1086] }},{"type": "Feature", "properties": {"name":"Yuzhnyy","quantity":340474}, "geometry": { "type": "Point", "coordinates": [31.1114,46.6255] }},{"type": "Feature", "properties": {"name":"Algeciras","quantity":335531}, "geometry": { "type": "Point", "coordinates": [-5.4278,36.1386] }},{"type": "Feature", "properties": {"name":"Gioia Tauro","quantity":328943}, "geometry": { "type": "Point", "coordinates": [15.9207,38.4271] }},{"type": "Feature", "properties": {"name":"Busan (Pusan)","quantity":328134}, "geometry": { "type": "Point", "coordinates": [129.0176,35.0803] }},{"type": "Feature", "properties": {"name":"Olbia","quantity":319314}, "geometry": { "type": "Point", "coordinates": [9.5397,40.9206] }},{"type": "Feature", "properties": {"name":"Ningbo","quantity":307192}, "geometry": { "type": "Point", "coordinates": [121.54988,29.87203] }},{"type": "Feature", "properties": {"name":"Montreal","quantity":289891}, "geometry": { "type": "Point", "coordinates": [-73.6554,45.5027] }},{"type": "Feature", "properties": {"name":"Tarragona","quantity":283783}, "geometry": { "type": "Point", "coordinates": [1.2546057,41.1172364] }},{"type": "Feature", "properties": {"name":"Augusta","quantity":279506}, "geometry": { "type": "Point", "coordinates": [15.2059,37.224] }},{"type": "Feature", "properties": {"name":"Koper","quantity":259091}, "geometry": { "type": "Point", "coordinates": [13.7304909,45.5479552] }},{"type": "Feature", "properties": {"name":"Jeddah","quantity":247850}, "geometry": { "type": "Point", "coordinates": [39.16404,21.58222] }},{"type": "Feature", "properties": {"name":"Port Kelang","quantity":242839}, "geometry": { "type": "Point", "coordinates": [101.3006,2.941] }},{"type": "Feature", "properties": {"name":"Tanjong Pelepas","quantity":238378}, "geometry": { "type": "Point", "coordinates": [103.54571,1.3570015] }},{"type": "Feature", "properties": {"name":"Lagos","quantity":235208}, "geometry": { "type": "Point", "coordinates": [3.38958521,6.44520751] }},{"type": "Feature", "properties": {"name":"Bouri Terminal","quantity":233813}, "geometry": { "type": "Point", "coordinates": [13.2605,33.8476] }},{"type": "Feature", "properties": {"name":"Khor al Fakkan","quantity":232936}, "geometry": { "type": "Point", "coordinates": [56.3709,25.3584] }},{"type": "Feature", "properties": {"name":"Milazzo","quantity":219123}, "geometry": { "type": "Point", "coordinates": [15.2734,38.2144] }},{"type": "Feature", "properties": {"name":"Kaohsiung","quantity":207338}, "geometry": { "type": "Point", "coordinates": [120.2893,22.6015] }},{"type": "Feature", "properties": {"name":"Brass ","quantity":200829}, "geometry": { "type": "Point", "coordinates": [13.2605,33.8476] }},{"type": "Feature", "properties": {"name":"Santos","quantity":199645}, "geometry": { "type": "Point", "coordinates": [-46.29,-23.8643] }},{"type": "Feature", "properties": {"name":"Valencia","quantity":197966}, "geometry": { "type": "Point", "coordinates": [-0.3525,39.4228] }},{"type": "Feature", "properties": {"name":"La Skirra","quantity":195705}, "geometry": { "type": "Point", "coordinates": [10.1654431,34.3342894] }},{"type": "Feature", "properties": {"name":"Alger","quantity":194241}, "geometry": { "type": "Point", "coordinates": [3.0601,36.7753] }},{"type": "Feature", "properties": {"name":"Tripoli","quantity":189398}, "geometry": { "type": "Point", "coordinates": [13.1800117,32.8925] }},{"type": "Feature", "properties": {"name":"Casablanca ","quantity":184968}, "geometry": { "type": "Point", "coordinates": [-7.6073,33.588] }},{"type": "Feature", "properties": {"name":"Jebel Ali","quantity":182283}, "geometry": { "type": "Point", "coordinates": [55.0687,24.9959] }},{"type": "Feature", "properties": {"name":"Skikda","quantity":178984}, "geometry": { "type": "Point", "coordinates": [6.89998164,36.8804219] }},{"type": "Feature", "properties": {"name":"Mongstad","quantity":175226}, "geometry": { "type": "Point", "coordinates": [5.0395,60.8157] }},{"type": "Feature", "properties": {"name":"Yantian Huangdong","quantity":168573}, "geometry": { "type": "Point", "coordinates": [114.283,22.5841] }},{"type": "Feature", "properties": {"name":"Savannah","quantity":167172}, "geometry": { "type": "Point", "coordinates": [-81.098,31.9996] }}]}
